[
  {
    "title": "Watertapz Pte Ltd",
    "address": "393 Balestier Road",
    "city": "Singapore",
    "country": "Singapore",
    "postalCode": "329798",
    "latitude": "1.32555154",
    "longitude": "103.8498251",
    "phone": "6259 1179",
    "url": "http://www.watertapz.com.sg/",
    "action": "Edit"
  },
  {
    "title": "Volumefive Pte Ltd",
    "address": "102E Pasir Panjang Rd, #01-01 Citilink Warehouse Complex",
    "city": "Singapore",
    "country": "Singapore",
    "postalCode": "118529",
    "latitude": "1.27610696986239",
    "longitude": "103.794785694787",
    "phone": "6348 2508",
    "url": "http://www.volumefivehome.com/",
    "action": "Edit"
  },
  {
    "title": "Viva Nueva Pte Ltd (Tampines)",
    "address": "1 Tampines North Drive 1, #01-14/15",
    "city": "Singapore",
    "country": "Singapore",
    "postalCode": "528559",
    "latitude": "1.371816766",
    "longitude": "103.9346678",
    "phone": "6970 4388",
    "url": "http://vivanueva.com/",
    "action": ""
  },
  {
    "title": "Viva Nueva Pte Ltd (Sims)",
    "address": "496 Sims Avenue",
    "city": "Singapore",
    "country": "Singapore",
    "postalCode": "387564",
    "latitude": "1.316297951",
    "longitude": "103.8885084",
    "phone": "6744 6938",
    "url": "http://vivanueva.com/",
    "action": ""
  },
  {
    "title": "Viva Nueva Pte Ltd (Balestier)",
    "address": "563 Balestier Rd",
    "city": "Singapore",
    "country": "Singapore",
    "postalCode": "329842",
    "latitude": "1.326480292",
    "longitude": "103.8446224",
    "phone": "6256 2718",
    "url": "http://vivanueva.com/",
    "action": ""
  },
  {
    "title": "Uniqool Engineering & Services Pte Ltd",
    "address": "615 Geylang Road",
    "city": "Singapore",
    "country": "Singapore",
    "postalCode": "389554",
    "latitude": "1.314486249",
    "longitude": "103.8872423",
    "phone": "6893 2398",
    "url": "https://www.uniqool.com.sg/",
    "action": ""
  },
  {
    "title": "Tiong Yeong Hardware Pte Ltd",
    "address": "Song Lin Building, 1 Syed Alwi Road, #01-01",
    "city": "Singapore",
    "country": "Singapore",
    "postalCode": "207628",
    "latitude": "1.306650598",
    "longitude": "103.8585196",
    "phone": "6292 6633",
    "url": "",
    "action": ""
  },
  {
    "title": "SYH Bathroom Studio Pte Ltd",
    "address": "234 Sims Avenue",
    "city": "Singapore",
    "country": "Singapore",
    "postalCode": "387510",
    "latitude": "1.314951245",
    "longitude": "103.8816067",
    "phone": "8031 9923",
    "url": "https://www.syhbs.com.sg/",
    "action": "Delete"
  },
  {
    "title": "Speedlights & Bathroom Solutions",
    "address": "6 Ubi Road 1, Wintech Centre, #01-13",
    "city": "Singapore",
    "country": "Singapore",
    "postalCode": "408726",
    "latitude": "1.326715374",
    "longitude": "103.8935619",
    "phone": "6747 2878",
    "url": "http://www.speedlightsbathroom.com/",
    "action": "Delete"
  },
  {
    "title": "Poh Joo Hardware Engineering Pte Ltd",
    "address": "389 Jalan Besar",
    "city": "Singapore",
    "country": "Singapore",
    "postalCode": "209004",
    "latitude": "1.313608971",
    "longitude": "103.8596688",
    "phone": "6292 3388",
    "url": "https://www.pohjoo.com.sg/",
    "action": "Edit"
  },
  {
    "title": "Ph Bathroom Gallery Pte Ltd",
    "address": "648 Geylang Road",
    "city": "Singapore",
    "country": "Singapore",
    "postalCode": "389578",
    "latitude": "1.314531515",
    "longitude": "103.8894999",
    "phone": "6745 1535",
    "url": "https://phbathroom.com/",
    "action": ""
  },
  {
    "title": "Modeste Pte Ltd",
    "address": "339 Beach Road",
    "city": "Singapore",
    "country": "Singapore",
    "postalCode": "199566",
    "latitude": "1.301659116",
    "longitude": "103.8613679",
    "phone": "6292 0039",
    "url": "https://www.modeste.sg/",
    "action": ""
  },
  {
    "title": "Lucky Khoon (Kaki Bukit)",
    "address": "1 Kaki Bukit Road 1, #01-01, Enterprise One",
    "city": "Singapore",
    "country": "Singapore",
    "postalCode": "415934",
    "latitude": "1.336133954",
    "longitude": "103.7551403",
    "phone": "6346 2172",
    "url": "https://luckykhoon.com.sg/",
    "action": ""
  },
  {
    "title": "Lucky Khoon (Boon Lay)",
    "address": "24 Boon Lay Way, Tradehub21, #01-72",
    "city": "Singapore",
    "country": "Singapore",
    "postalCode": "609969",
    "latitude": "1.329354696",
    "longitude": "103.7527627",
    "phone": "6795 5835",
    "url": "https://luckykhoon.com.sg/",
    "action": ""
  },
  {
    "title": "Lookz Pte Ltd",
    "address": "308 Balestier Road, #01-01",
    "city": "Singapore",
    "country": "Singapore",
    "postalCode": "329741",
    "latitude": "1.323704026",
    "longitude": "103.8523984",
    "phone": "6252 8208",
    "url": "https://www.lookz.com.sg/",
    "action": ""
  },
  {
    "title": "Living Phenomenon (Tampines)",
    "address": "1 Tampines North Drive 1, #01-29",
    "city": "Singapore",
    "country": "Singapore",
    "postalCode": "528559",
    "latitude": "1.37243458802074",
    "longitude": "103.933780438966",
    "phone": "6252 2152",
    "url": "https://lpheno.com/",
    "action": "Edit"
  },
  {
    "title": "Living Phenomenon (Balestier)",
    "address": "519 Balestier Rd, #01-02",
    "city": "Singapore",
    "country": "Singapore",
    "postalCode": "329852",
    "latitude": "1.326537474",
    "longitude": "103.8465584",
    "phone": "6252 2152",
    "url": "https://lpheno.com/",
    "action": ""
  },
  {
    "title": "Lights & Bathroom Solutions (Ubi)",
    "address": "61 Ubi Rd 1, #02-01",
    "city": "Singapore",
    "country": "Singapore",
    "postalCode": "408727",
    "latitude": "1.332964163",
    "longitude": "103.8908533",
    "phone": "6259 1536",
    "url": "",
    "action": ""
  },
  {
    "title": "Lights & Bathroom Solutions (Jurong)",
    "address": "8 Boon Lay Way, 8@Tradehub 21, #01-19",
    "city": "Singapore",
    "country": "Singapore",
    "postalCode": "609964",
    "latitude": "1.328481044",
    "longitude": "103.7537842",
    "phone": "6259 1536",
    "url": "",
    "action": ""
  },
  {
    "title": "L&H Bathroom Pte Ltd",
    "address": "7 Kaki Bukit Road 1, #01-14",
    "city": "Singapore",
    "country": "Singapore",
    "postalCode": "415937",
    "latitude": "1.334672788",
    "longitude": "103.9009614",
    "phone": "6846 7553",
    "url": "https://www.lhbathroom.com.sg/",
    "action": ""
  },
  {
    "title": "Inzwerkz Pte Ltd",
    "address": "33 Ubi Avenue 3, Vertex, #01-33",
    "city": "Singapore",
    "country": "Singapore",
    "postalCode": "408868",
    "latitude": "1.334154047",
    "longitude": "103.8943383",
    "phone": "6659 2533",
    "url": "https://inzwerkz.com.sg/",
    "action": ""
  },
  {
    "title": "Ideal Merchandise Pte Ltd",
    "address": "808 French Road, Kitchener Complex, #02-21",
    "city": "Singapore",
    "country": "Singapore",
    "postalCode": "200808",
    "latitude": "1.308914232",
    "longitude": "103.8620731",
    "phone": "6297 9829",
    "url": "https://www.bathroom.com.sg/",
    "action": ""
  },
  {
    "title": "Ideal Kitchen and Bathroom Pte Ltd",
    "address": "577 Balestier Road",
    "city": "Singapore",
    "country": "Singapore",
    "postalCode": "329892",
    "latitude": "1.326802804",
    "longitude": "103.844106",
    "phone": "6250 1234",
    "url": "https://idealknb.com.sg/",
    "action": ""
  },
  {
    "title": "Home & Bathroom Building Products Pte Ltd",
    "address": "566 Balestier Road",
    "city": "Singapore",
    "country": "Singapore",
    "postalCode": "329883",
    "latitude": "1.3329499",
    "longitude": "103.8838313",
    "phone": "6253 4655",
    "url": "https://homeandbathroom.com.sg/",
    "action": ""
  },
  {
    "title": "Hoe Kee (Vertex)",
    "address": "33 Ubi Avenue 4 #01-34 Vertex",
    "city": "Singapore",
    "country": "Singapore",
    "postalCode": "408868",
    "latitude": "1.3342608",
    "longitude": "103.8845283",
    "phone": "6702 6617",
    "url": "https://www.hoekee.com.sg/",
    "action": ""
  },
  {
    "title": "Hoe Kee (Playfair Road)",
    "address": "27 Playfair Road",
    "city": "Singapore",
    "country": "Singapore",
    "postalCode": "367991",
    "latitude": "1.336039514",
    "longitude": "103.9044771",
    "phone": "6846 0889",
    "url": "https://www.hoekee.com.sg/",
    "action": ""
  },
  {
    "title": "Hoe Kee (Kaki Bukit)",
    "address": "1 Kaki Bukit Place",
    "city": "Singapore",
    "country": "Singapore",
    "postalCode": "416179",
    "latitude": "1.307726898",
    "longitude": "103.8573992",
    "phone": "6745 3839",
    "url": "https://www.hoekee.com.sg/",
    "action": ""
  },
  {
    "title": "Hoe Kee (Jalan Berseh)",
    "address": "1 Jalan Berseh, New World Centre, #01-09 to #01-11",
    "city": "Singapore",
    "country": "Singapore",
    "postalCode": "209037",
    "latitude": "1.335757173",
    "longitude": "103.746335",
    "phone": "6392 9909",
    "url": "https://www.hoekee.com.sg/",
    "action": ""
  },
  {
    "title": "Hoe Kee (IMM)",
    "address": "2 Jurong East St 21, IMM Building Singapore, #03-08",
    "city": "Singapore",
    "country": "Singapore",
    "postalCode": "609601",
    "latitude": "1.329024165",
    "longitude": "103.8748989",
    "phone": "6563 5088",
    "url": "https://www.hoekee.com.sg/",
    "action": ""
  },
  {
    "title": "Hoe Kee (Genting)",
    "address": "8 Genting Road, The Blue Building",
    "city": "Singapore",
    "country": "Singapore",
    "postalCode": "349472",
    "latitude": "1.314930289",
    "longitude": "103.8912284",
    "phone": "6296 6827",
    "url": "https://www.hoekee.com.sg/",
    "action": "Edit"
  },
  {
    "title": "Heritage Luxury",
    "address": "712 Geylang Road",
    "city": "Singapore",
    "country": "Singapore",
    "postalCode": "389627",
    "latitude": "1.315096901",
    "longitude": "103.8914731",
    "phone": "6846 0148",
    "url": "",
    "action": "Edit"
  },
  {
    "title": "Heritage Bathroom Gallery Pte Ltd",
    "address": "718 Geylang Road",
    "city": "Singapore",
    "country": "Singapore",
    "postalCode": "389630",
    "latitude": "1.307271589",
    "longitude": "103.8564419",
    "phone": "6846 0148",
    "url": "",
    "action": ""
  },
  {
    "title": "Fullsun Marketing Pte Ltd",
    "address": "146 Jalan Besar",
    "city": "Singapore",
    "country": "Singapore",
    "postalCode": "208864",
    "latitude": "1.350075887",
    "longitude": "103.8408552",
    "phone": "9636 2966",
    "url": "https://fullsun.com.sg/",
    "action": ""
  },
  {
    "title": "Ferrara Asiapac PTE LTD",
    "address": "39A Jalan Peminpin, Halcyon Building, #06-05",
    "city": "Singapore",
    "country": "Singapore",
    "postalCode": "577183",
    "latitude": "1.318201775",
    "longitude": "103.9061744",
    "phone": "6235 0020",
    "url": "https://www.ferrara.com.sg/",
    "action": "Delete"
  },
  {
    "title": "Elite Sanitary Trading",
    "address": "269 Changi Road",
    "city": "Singapore",
    "country": "Singapore",
    "postalCode": "419752",
    "latitude": "1.318555893",
    "longitude": "103.9103236",
    "phone": "6842 3898",
    "url": "https://elite269.sg/",
    "action": ""
  },
  {
    "title": "Eestilo De Vida Pte Ltd",
    "address": "366 Changi Road Keng Yee Garden",
    "city": "Singapore",
    "country": "Singapore",
    "postalCode": "419825",
    "latitude": "1.303940907",
    "longitude": "103.7963058",
    "phone": "6844 0901",
    "url": "",
    "action": "Delete"
  },
  {
    "title": "Econflo Systems Pte Ltd",
    "address": "401 Commonwealth Drive, Haw Par Techno Centre, Lobby B #01-01",
    "city": "Singapore",
    "country": "Singapore",
    "postalCode": "149598",
    "latitude": "1.316229515",
    "longitude": "103.8885778",
    "phone": "6396 3738",
    "url": "https://econflo.com/",
    "action": "Edit"
  },
  {
    "title": "De Lluvia Bathroom Gallery Pte Ltd",
    "address": "512 Sims Avenue",
    "city": "Singapore",
    "country": "Singapore",
    "postalCode": "387572",
    "latitude": "1.31070209",
    "longitude": "103.8554666",
    "phone": "6741 4062",
    "url": "https://www.delluviabathroomkitchen.com.sg/",
    "action": "Delete"
  },
  {
    "title": "Chuan Heng Hardware Trading Pte Ltd",
    "address": "132 Jalan Besar",
    "city": "Singapore",
    "country": "Singapore",
    "postalCode": "208850",
    "latitude": "1.313641645",
    "longitude": "103.885155",
    "phone": "6294 2397",
    "url": "https://www.chuanheng.sg/",
    "action": "Delete"
  },
  {
    "title": "Casa And Maison Pte. Ltd.",
    "address": "62 Ubi Rd 1, #01-07 Oxley Bizhub 2",
    "city": "Singapore",
    "country": "Singapore",
    "postalCode": "408729",
    "latitude": "1.33230724704915",
    "longitude": "103.891627979444",
    "phone": "6741 4062",
    "url": "https://casa-maison.com.sg/",
    "action": "Edit"
  },
  {
    "title": "Bretz & Co Pte Ltd",
    "address": "1 Nassim Road, #01-02",
    "city": "Singapore",
    "country": "Singapore",
    "postalCode": "258485",
    "latitude": "1.304760718",
    "longitude": "103.7965177",
    "phone": "6336 9926",
    "url": "https://www.bretzco.com/",
    "action": ""
  },
  {
    "title": "Bravat Singapore Pte Ltd",
    "address": "401 Commonwealth Drive, Haw Par Techno Centre, #01-01",
    "city": "Singapore",
    "country": "Singapore",
    "postalCode": "149598",
    "latitude": "1.332584021",
    "longitude": "103.8947124",
    "phone": "6659 1868",
    "url": "",
    "action": "Delete"
  },
  {
    "title": "Bathroom Warehouse (Ubi)",
    "address": "33 Ubi Ave 3, Vertex, #01-51",
    "city": "Singapore",
    "country": "Singapore",
    "postalCode": "408868",
    "latitude": "1.331587522",
    "longitude": "103.9684532",
    "phone": "6659 0796",
    "url": "https://bathroomwarehouse.com.sg/",
    "action": ""
  },
  {
    "title": "Bathroom Warehouse (Changi)",
    "address": "25 Changi South Avenue, 2 OCH Building, Level 3",
    "city": "Singapore",
    "country": "Singapore",
    "postalCode": "486594",
    "latitude": "1.285973874",
    "longitude": "103.8090676",
    "phone": "6542 0859",
    "url": "https://bathroomwarehouse.com.sg/",
    "action": ""
  },
  {
    "title": "Bathroom Warehouse (Bukit Merah)",
    "address": "16 Jalan Kilang, Hoi Hup Building, #01-01",
    "city": "Singapore",
    "country": "Singapore",
    "postalCode": "159416",
    "latitude": "1.2857379",
    "longitude": "103.8065142",
    "phone": "6238 0548",
    "url": "http://bathroomwarehouse.com.sg/",
    "action": ""
  },
  {
    "title": "Bath Labz (Ubi)",
    "address": "33 Ubi Avenue 3, Vertex Singapore, #01-54",
    "city": "Singapore",
    "country": "Singapore",
    "postalCode": "408868",
    "latitude": "1.3329431",
    "longitude": "103.8891268",
    "phone": "6970 0796",
    "url": "https://www.bathlabz.com.sg/",
    "action": ""
  },
  {
    "title": "Bath Labz (Jurong)",
    "address": "18 Boon Lay way, Tradehub 21, #01-129",
    "city": "Singapore",
    "country": "Singapore",
    "postalCode": "609966",
    "latitude": "1.3280878",
    "longitude": "103.7512458",
    "phone": "6684 9512",
    "url": "https://www.bathlabz.com.sg/",
    "action": ""
  },
  {
    "title": "Bacera Pte Ltd",
    "address": "714 Geylang Road",
    "city": "Singapore",
    "country": "Singapore",
    "postalCode": "389628",
    "latitude": "1.3148044",
    "longitude": "103.8887096",
    "phone": "6842 1101",
    "url": "https://www.bacera.com.sg/",
    "action": ""
  },
  {
    "title": "Azora (Oxley)",
    "address": "No 62 Ubi Road 1, Oxley Bizhub 2, #01-30/31",
    "city": "Singapore",
    "country": "Singapore",
    "postalCode": "408734",
    "latitude": "1.3322686",
    "longitude": "103.8895311",
    "phone": "6444 1136",
    "url": "https://azora.com.sg/",
    "action": ""
  },
  {
    "title": "Azora (Jurong)",
    "address": "18 Boon Lay Way, Tradehub 21, #01-140",
    "city": "Singapore",
    "country": "Singapore",
    "postalCode": "609966",
    "latitude": "1.3282895",
    "longitude": "103.7505353",
    "phone": "6686 4826",
    "url": "https://azora.com.sg/",
    "action": ""
  },
  {
    "title": "Azora (Balestier)",
    "address": "No.424 Balestier Road, Giffard Mansion, #01-01",
    "city": "Singapore",
    "country": "Singapore",
    "postalCode": "329810",
    "latitude": "1.3262053",
    "longitude": "103.8465413",
    "phone": "6256 4805",
    "url": "https://azora.com.sg/",
    "action": ""
  },
  {
    "title": "Adamas Bathroom Pte Ltd (Boon Lay)",
    "address": "",
    "city": "Singapore",
    "country": "Singapore",
    "postalCode": "609964",
    "latitude": "1.327352",
    "longitude": "103.7488577",
    "phone": "6252 3560",
    "url": "http://www.adamasbathroom.com/",
    "action": "Delete"
  },
  {
    "title": "Adamas Bathroom Pte Ltd (Balestier)",
    "address": "555 Balestier Road",
    "city": "Singapore",
    "country": "Singapore",
    "postalCode": "329871",
    "latitude": "1.3265031",
    "longitude": "103.8398924",
    "phone": "6795 9495",
    "url": "http://www.adamasbathroom.com/",
    "action": "Delete"
  },
  {
    "title": "9 Star Services Pte Ltd",
    "address": "39 Woodlands Close #01-55 Lobby D, Mega@Woodlands",
    "city": "Singapore",
    "country": "Singapore",
    "postalCode": "737856",
    "latitude": "1.4378735",
    "longitude": "103.8041989",
    "phone": "6904 5919",
    "url": "",
    "action": ""
  },
  {
    "title": "Lookz Pte Ltd",
    "address": "65 Ubi Road 1, Oxley Bizhub, #01-70",
    "city": "Singapore",
    "country": "Singapore",
    "postalCode": "408729",
    "latitude": "1.33235314090504",
    "longitude": "103.889617106633",
    "phone": "6252 8208",
    "url": "https://www.lookz.com.sg/",
    "action": "Add"
  },
  {
    "title": "Lights Avenue",
    "address": "TradeHub 21, 18 Boon Lay Way, #01-115",
    "city": "Singapore",
    "country": "Singapore",
    "postalCode": "609966",
    "latitude": "1.32852124365271",
    "longitude": "103.753108665951",
    "phone": "6970 7313",
    "url": "https://www.lightavenuesg.com/",
    "action": "Add"
  },
  {
    "title": "Lights Avenue",
    "address": "Oxley Bizhub 2, 62 Ubi Road 1, #01-13/14",
    "city": "Singapore",
    "country": "Singapore",
    "postalCode": "408734",
    "latitude": "1.33250210638731",
    "longitude": "103.892129664871",
    "phone": "6970 6986",
    "url": "https://www.lightavenuesg.com/",
    "action": "Add"
  },
  {
    "title": "Lights Avenue",
    "address": "Primz Bizhub, 21 Woodlands Close, #01-26",
    "city": "Singapore",
    "country": "Singapore",
    "postalCode": "737854",
    "latitude": "1.43546305699326",
    "longitude": "103.804823723623",
    "phone": "6592 4593",
    "url": "https://www.lightavenuesg.com/",
    "action": "Add"
  },
  {
    "title": "Econflo Systems Pte Ltd",
    "address": "34 Boon Leat Terrace, #03-02",
    "city": "Singapore",
    "country": "Singapore",
    "postalCode": "119866",
    "latitude": "1.27644916983636",
    "longitude": "103.797173094787",
    "phone": "6266 5562",
    "url": "https://econflo.com/",
    "action": "Add"
  },
  {
    "title": "BSG Trading",
    "address": "2 Kallang Pudding Rd, #02-03",
    "city": "Singapore",
    "country": "Singapore",
    "postalCode": "349307",
    "latitude": "1.32998858783941",
    "longitude": "103.876780794787",
    "phone": "8804 5222",
    "url": "https://bsgtrading.sg/",
    "action": "Add"
  },
  {
    "title": "Azora Pte Ltd",
    "address": "7 Gambas Cres, #01-06/07 ARK@Gambas",
    "city": "Singapore",
    "country": "Singapore",
    "postalCode": "757087",
    "latitude": "1.44494194353271",
    "longitude": "103.813009106429",
    "phone": "6883 5388",
    "url": "https://azora.com.sg/",
    "action": "Add"
  },
  {
    "title": "9 Star Services Pte Ltd",
    "address": "39 Woodlands Close #01-45 Lobby D, Mega@Woodlands",
    "city": "Singapore",
    "country": "Singapore",
    "postalCode": "737856",
    "latitude": "1.43847447862345",
    "longitude": "103.808771138629",
    "phone": "6904 5919",
    "url": "",
    "action": "Add"
  }
]